[
  {
    "_id": "5d7a514b5d2c12c7449be100",
    "user": "5d7a514b5d2c12c7449be043",
    "name": "KickAssTrip 2014",
    "description": "KickAssTrip desc"
  },
  {
    "_id": "5d7a514b5d2c12c7449be101",
    "user": "5d7a514b5d2c12c7449be043",
    "name": "Bulgary 2012",
    "description": "Подорож до Болгарії"
  },
  {
    "_id": "5d7a514b5d2c12c7449be102",
    "user": "5d7a514b5d2c12c7449be043",
    "name": "Poland 2006",
    "description": "Програма обміну школярами"
  },
  {
    "_id": "5d7a514b5d2c12c7449be103",
    "user": "5d7a514b5d2c12c7449be043",
    "name": "Norway Interview 2017",
    "description": "Поїздка в Нормегію на інтерв'ю"
  },
  {
    "_id": "5d7a514b5d2c12c7449be104",
    "user": "5d7a514b5d2c12c7449be043",
    "name": "AISEC Professional Internship 2013",
    "description": "Поїздка в Норвегію де я працював програмістом майже рік часу"
  },
  {
    "_id": "5d7a514b5d2c12c7449be105",
    "user": "5d7a514b5d2c12c7449be043",
    "name": "Work and Travel 2009 - North Carolina",
    "description": "Поїздка по програмі W&T USA (Пн.Кароліна)"
  },
  {
    "_id": "5d7a514b5d2c12c7449be106",
    "user": "5d7a514b5d2c12c7449be043",
    "name": "Work and Travel 2010 - Alaska",
    "description": "Поїздка по програмі W&T USA (Аляска)",
    "paths": [
      {
        "name": "Flight from Lviv, Ukraine to Alaska, USA",
        "type": "air",
        "waypoints": [
          { "lat": 50.448853, "lng": 30.513346, "name": "Kyiv" },
          { "lat": 52.3547322, "lng": 4.8285837, "name": "Amsterdam" },
          { "lat": 40.785091, "lng": -73.968285, "name": "New York" },
          { "lat": 44.970697, "lng": -93.2614785, "name": "Minneapolis" },
          { "lat": 61.217381, "lng": -149.863129, "name": "Anchorage" }
        ]
      },
      {
        "name": "Car drive from Anchorage to Seward",
        "type": "ground",
        "waypoints": [
          { "lat": 50.448853, "lng": 30.513346, "name": "Kyiv" },
          { "lat": 52.3547322, "lng": 4.8285837, "name": "Amsterdam" },
          { "lat": 40.785091, "lng": -73.968285, "name": "New York" },
          { "lat": 44.970697, "lng": -93.2614785, "name": "Minneapolis" },
          { "lat": 61.217381, "lng": -149.863129, "name": "Anchorage" }
        ]
      }
    ]
  }
]
